{
  "stations": [
    {
      "borough": "Q",
      "daytimeRoutes": ["N", "W"],
      "id": "1",
      "latitude": "40.775036",
      "longitude": "-73.912034",
      "name": "Astoria - Ditmars Blvd"
    },
    {
      "borough": "Q",
      "daytimeRoutes": ["N", "W"],
      "id": "2",
      "latitude": "40.770258",
      "longitude": "-73.917843",
      "name": "Astoria Blvd"
    },
    {
      "borough": "Q",
      "daytimeRoutes": ["N", "W"],
      "id": "3",
      "latitude": "40.766779",
      "longitude": "-73.921479",
      "name": "30 Av"
    },
    {
      "borough": "Q",
      "daytimeRoutes": ["N", "W"],
      "id": "4",
      "latitude": "40.76182",
      "longitude": "-73.925508",
      "name": "Broadway"
    },
    {
      "borough": "Q",
      "daytimeRoutes": ["N", "W"],
      "id": "5",
      "latitude": "40.756804",
      "longitude": "-73.929575",
      "name": "36 Av"
    },
    {
      "borough": "Q",
      "daytimeRoutes": ["N", "W"],
      "id": "6",
      "latitude": "40.752882",
      "longitude": "-73.932755",
      "name": "39 Av"
    },
    {
      "borough": "M",
      "daytimeRoutes": ["N", "W", "R"],
      "id": "8",
      "latitude": "40.764811",
      "longitude": "-73.973347",
      "name": "5 Av/59 St"
    },
    {
      "borough": "M",
      "daytimeRoutes": ["N", "Q", "R", "W"],
      "id": "9",
      "latitude": "40.764664",
      "longitude": "-73.980658",
      "name": "57 St - 7 Av"
    },
    {
      "borough": "M",
      "daytimeRoutes": ["N", "R", "W"],
      "id": "10",
      "latitude": "40.759901",
      "longitude": "-73.984139",
      "name": "49 St"
    },
    {
      "borough": "M",
      "daytimeRoutes": ["R", "W"],
      "id": "13",
      "latitude": "40.745494",
      "longitude": "-73.988691",
      "name": "28 St"
    },
    {
      "borough": "M",
      "daytimeRoutes": ["R", "W"],
      "id": "14",
      "latitude": "40.741303",
      "longitude": "-73.989344",
      "name": "23 St"
    },
    {
      "borough": "M",
      "daytimeRoutes": ["R", "W"],
      "id": "16",
      "latitude": "40.730328",
      "longitude": "-73.992629",
      "name": "8 St - NYU"
    },
    {
      "borough": "M",
      "daytimeRoutes": ["R", "W"],
      "id": "17",
      "latitude": "40.724329",
      "longitude": "-73.997702",
      "name": "Prince St"
    },
    {
      "borough": "M",
      "daytimeRoutes": ["R", "W"],
      "id": "20",
      "latitude": "40.713282",
      "longitude": "-74.006978",
      "name": "City Hall"
    },
    {
      "borough": "M",
      "daytimeRoutes": ["R", "W"],
      "id": "22",
      "latitude": "40.70722",
      "longitude": "-74.013342",
      "name": "Rector St"
    },
    {
      "borough": "Bk",
      "daytimeRoutes": ["B", "Q", "R"],
      "id": "26",
      "latitude": "40.690635",
      "longitude": "-73.981824",
      "name": "DeKalb Av"
    },
    {
      "borough": "Bk",
      "daytimeRoutes": ["R"],
      "id": "28",
      "latitude": "40.677316",
      "longitude": "-73.98311",
      "name": "Union St"
    },
    {
      "borough": "Bk",
      "daytimeRoutes": ["R"],
      "id": "30",
      "latitude": "40.665414",
      "longitude": "-73.992872",
      "name": "Prospect Av"
    },
    {
      "borough": "Bk",
      "daytimeRoutes": ["R"],
      "id": "31",
      "latitude": "40.660397",
      "longitude": "-73.998091",
      "name": "25 St"
    },
    {
      "borough": "Bk",
      "daytimeRoutes": ["D", "N", "R"],
      "id": "32",
      "latitude": "40.655144",
      "longitude": "-74.003549",
      "name": "36 St"
    },
    {
      "borough": "Bk",
      "daytimeRoutes": ["R"],
      "id": "33",
      "latitude": "40.648939",
      "longitude": "-74.010006",
      "name": "45 St"
    },
    {
      "borough": "Bk",
      "daytimeRoutes": ["R"],
      "id": "34",
      "latitude": "40.645069",
      "longitude": "-74.014034",
      "name": "53 St"
    },
    {
      "borough": "Bk",
      "daytimeRoutes": ["N", "R"],
      "id": "35",
      "latitude": "40.641362",
      "longitude": "-74.017881",
      "name": "59 St"
    },
    {
      "borough": "Bk",
      "daytimeRoutes": ["R"],
      "id": "36",
      "latitude": "40.634967",
      "longitude": "-74.023377",
      "name": "Bay Ridge Av"
    },
    {
      "borough": "Bk",
      "daytimeRoutes": ["R"],
      "id": "37",
      "latitude": "40.629742",
      "longitude": "-74.02551",
      "name": "77 St"
    },
    {
      "borough": "Bk",
      "daytimeRoutes": ["R"],
      "id": "38",
      "latitude": "40.622687",
      "longitude": "-74.028398",
      "name": "86 St"
    },
    {
      "borough": "Bk",
      "daytimeRoutes": ["R"],
      "id": "39",
      "latitude": "40.616622",
      "longitude": "-74.030876",
      "name": "Bay Ridge - 95 St"
    },
    {
      "borough": "Bk",
      "daytimeRoutes": ["B", "Q"],
      "id": "41",
      "latitude": "40.67705",
      "longitude": "-73.972367",
      "name": "7 Av"
    },
    {
      "borough": "Bk",
      "daytimeRoutes": ["B", "Q"],
      "id": "42",
      "latitude": "40.661614",
      "longitude": "-73.962246",
      "name": "Prospect Park"
    },
    {
      "borough": "Bk",
      "daytimeRoutes": ["B", "Q"],
      "id": "43",
      "latitude": "40.655292",
      "longitude": "-73.961495",
      "name": "Parkside Av"
    },
    {
      "borough": "Bk",
      "daytimeRoutes": ["B", "Q"],
      "id": "44",
      "latitude": "40.650527",
      "longitude": "-73.962982",
      "name": "Church Av"
    },
    {
      "borough": "Bk",
      "daytimeRoutes": ["B", "Q"],
      "id": "45",
      "latitude": "40.644031",
      "longitude": "-73.964492",
      "name": "Beverley Rd"
    },
    {
      "borough": "Bk",
      "daytimeRoutes": ["B", "Q"],
      "id": "46",
      "latitude": "40.640927",
      "longitude": "-73.963891",
      "name": "Cortelyou Rd"
    },
    {
      "borough": "Bk",
      "daytimeRoutes": ["B", "Q"],
      "id": "47",
      "latitude": "40.635082",
      "longitude": "-73.962793",
      "name": "Newkirk Plaza"
    },
    {
      "borough": "Bk",
      "daytimeRoutes": ["B", "Q"],
      "id": "48",
      "latitude": "40.62927",
      "longitude": "-73.961639",
      "name": "Avenue H"
    },
    {
      "borough": "Bk",
      "daytimeRoutes": ["B", "Q"],
      "id": "49",
      "latitude": "40.625039",
      "longitude": "-73.960803",
      "name": "Avenue J"
    },
    {
      "borough": "Bk",
      "daytimeRoutes": ["B", "Q"],
      "id": "50",
      "latitude": "40.617618",
      "longitude": "-73.959399",
      "name": "Avenue M"
    },
    {
      "borough": "Bk",
      "daytimeRoutes": ["B", "Q"],
      "id": "51",
      "latitude": "40.60867",
      "longitude": "-73.957734",
      "name": "Kings Hwy"
    },
    {
      "borough": "Bk",
      "daytimeRoutes": ["B", "Q"],
      "id": "52",
      "latitude": "40.5993",
      "longitude": "-73.955929",
      "name": "Avenue U"
    },
    {
      "borough": "Bk",
      "daytimeRoutes": ["B", "Q"],
      "id": "53",
      "latitude": "40.595246",
      "longitude": "-73.955161",
      "name": "Neck Rd"
    },
    {
      "borough": "Bk",
      "daytimeRoutes": ["B", "Q"],
      "id": "54",
      "latitude": "40.586896",
      "longitude": "-73.954155",
      "name": "Sheepshead Bay"
    },
    {
      "borough": "Bk",
      "daytimeRoutes": ["B", "Q"],
      "id": "55",
      "latitude": "40.577621",
      "longitude": "-73.961376",
      "name": "Brighton Beach"
    },
    {
      "borough": "Bk",
      "daytimeRoutes": ["Q"],
      "id": "56",
      "latitude": "40.576312",
      "longitude": "-73.968501",
      "name": "Ocean Pkwy"
    },
    {
      "borough": "Bk",
      "daytimeRoutes": ["F", "Q"],
      "id": "57",
      "latitude": "40.576127",
      "longitude": "-73.975939",
      "name": "W 8 St - NY Aquarium"
    },
    {
      "borough": "Bk",
      "daytimeRoutes": ["D", "F", "N", "Q"],
      "id": "58",
      "latitude": "40.577422",
      "longitude": "-73.981233",
      "name": "Coney Island - Stillwell Av"
    },
    {
      "borough": "Bk",
      "daytimeRoutes": ["D"],
      "id": "59",
      "latitude": "40.646292",
      "longitude": "-73.994324",
      "name": "9 Av"
    },
    {
      "borough": "Bk",
      "daytimeRoutes": ["D"],
      "id": "60",
      "latitude": "40.640914",
      "longitude": "-73.994304",
      "name": "Fort Hamilton Pkwy"
    },
    {
      "borough": "Bk",
      "daytimeRoutes": ["D"],
      "id": "61",
      "latitude": "40.63626",
      "longitude": "-73.994791",
      "name": "50 St"
    },
    {
      "borough": "Bk",
      "daytimeRoutes": ["D"],
      "id": "62",
      "latitude": "40.631435",
      "longitude": "-73.995476",
      "name": "55 St"
    },
    {
      "borough": "Bk",
      "daytimeRoutes": ["D"],
      "id": "64",
      "latitude": "40.619589",
      "longitude": "-73.998864",
      "name": "71 St"
    },
    {
      "borough": "Bk",
      "daytimeRoutes": ["D"],
      "id": "65",
      "latitude": "40.613501",
      "longitude": "-74.00061",
      "name": "79 St"
    },
    {
      "borough": "Bk",
      "daytimeRoutes": ["D"],
      "id": "66",
      "latitude": "40.607954",
      "longitude": "-74.001736",
      "name": "18 Av"
    },
    {
      "borough": "Bk",
      "daytimeRoutes": ["D"],
      "id": "67",
      "latitude": "40.604556",
      "longitude": "-73.998168",
      "name": "20 Av"
    },
    {
      "borough": "Bk",
      "daytimeRoutes": ["D"],
      "id": "68",
      "latitude": "40.601875",
      "longitude": "-73.993728",
      "name": "Bay Pkwy"
    },
    {
      "borough": "Bk",
      "daytimeRoutes": ["D"],
      "id": "69",
      "latitude": "40.597704",
      "longitude": "-73.986829",
      "name": "25 Av"
    },
    {
      "borough": "Bk",
      "daytimeRoutes": ["D"],
      "id": "70",
      "latitude": "40.588841",
      "longitude": "-73.983765",
      "name": "Bay 50 St"
    },
    {
      "borough": "Bk",
      "daytimeRoutes": ["N"],
      "id": "71",
      "latitude": "40.635064",
      "longitude": "-74.011719",
      "name": "8 Av"
    },
    {
      "borough": "Bk",
      "daytimeRoutes": ["N"],
      "id": "72",
      "latitude": "40.631386",
      "longitude": "-74.005351",
      "name": "Fort Hamilton Pkwy"
    },
    {
      "borough": "Bk",
      "daytimeRoutes": ["N"],
      "id": "74",
      "latitude": "40.620671",
      "longitude": "-73.990414",
      "name": "18 Av"
    },
    {
      "borough": "Bk",
      "daytimeRoutes": ["N"],
      "id": "75",
      "latitude": "40.61741",
      "longitude": "-73.985026",
      "name": "20 Av"
    },
    {
      "borough": "Bk",
      "daytimeRoutes": ["N"],
      "id": "76",
      "latitude": "40.611815",
      "longitude": "-73.981848",
      "name": "Bay Pkwy"
    },
    {
      "borough": "Bk",
      "daytimeRoutes": ["N"],
      "id": "77",
      "latitude": "40.603923",
      "longitude": "-73.980353",
      "name": "Kings Hwy"
    },
    {
      "borough": "Bk",
      "daytimeRoutes": ["N"],
      "id": "78",
      "latitude": "40.597473",
      "longitude": "-73.979137",
      "name": "Avenue U"
    },
    {
      "borough": "Bk",
      "daytimeRoutes": ["N"],
      "id": "79",
      "latitude": "40.592721",
      "longitude": "-73.97823",
      "name": "86 St"
    },
    {
      "borough": "Q",
      "daytimeRoutes": ["J", "Z"],
      "id": "80",
      "latitude": "40.700492",
      "longitude": "-73.828294",
      "name": "121 St"
    },
    {
      "borough": "Q",
      "daytimeRoutes": ["J"],
      "id": "81",
      "latitude": "40.697418",
      "longitude": "-73.836345",
      "name": "111 St"
    },
    {
      "borough": "Q",
      "daytimeRoutes": ["J", "Z"],
      "id": "82",
      "latitude": "40.695178",
      "longitude": "-73.84433",
      "name": "104 St"
    },
    {
      "borough": "Q",
      "daytimeRoutes": ["J", "Z"],
      "id": "83",
      "latitude": "40.693879",
      "longitude": "-73.851576",
      "name": "Woodhaven Blvd"
    },
    {
      "borough": "Q",
      "daytimeRoutes": ["J"],
      "id": "84",
      "latitude": "40.692435",
      "longitude": "-73.86001",
      "name": "85 St - Forest Pkwy"
    },
    {
      "borough": "Q",
      "daytimeRoutes": ["J", "Z"],
      "id": "85",
      "latitude": "40.691324",
      "longitude": "-73.867139",
      "name": "75 St"
    },
    {
      "borough": "Bk",
      "daytimeRoutes": ["J"],
      "id": "86",
      "latitude": "40.689941",
      "longitude": "-73.87255",
      "name": "Cypress Hills"
    },
    {
      "borough": "Bk",
      "daytimeRoutes": ["J", "Z"],
      "id": "87",
      "latitude": "40.683194",
      "longitude": "-73.873785",
      "name": "Crescent St"
    },
    {
      "borough": "Bk",
      "daytimeRoutes": ["J", "Z"],
      "id": "88",
      "latitude": "40.68141",
      "longitude": "-73.880039",
      "name": "Norwood Av"
    },
    {
      "borough": "Bk",
      "daytimeRoutes": ["J"],
      "id": "89",
      "latitude": "40.679947",
      "longitude": "-73.884639",
      "name": "Cleveland St"
    },
    {
      "borough": "Bk",
      "daytimeRoutes": ["J", "Z"],
      "id": "90",
      "latitude": "40.678024",
      "longitude": "-73.891688",
      "name": "Van Siclen Av"
    },
    {
      "borough": "Bk",
      "daytimeRoutes": ["J"],
      "id": "91",
      "latitude": "40.676992",
      "longitude": "-73.898654",
      "name": "Alabama Av"
    },
    {
      "borough": "Bk",
      "daytimeRoutes": ["J", "Z"],
      "id": "93",
      "latitude": "40.682893",
      "longitude": "-73.910456",
      "name": "Chauncey St"
    },
    {
      "borough": "Bk",
      "daytimeRoutes": ["J"],
      "id": "94",
      "latitude": "40.68637",
      "longitude": "-73.916559",
      "name": "Halsey St"
    },
    {
      "borough": "Bk",
      "daytimeRoutes": ["J", "Z"],
      "id": "95",
      "latitude": "40.68963",
      "longitude": "-73.92227",
      "name": "Gates Av"
    },
    {
      "borough": "Bk",
      "daytimeRoutes": ["J"],
      "id": "96",
      "latitude": "40.693342",
      "longitude": "-73.928814",
      "name": "Kosciuszko St"
    },
    {
      "borough": "Bk",
      "daytimeRoutes": ["J", "M", "Z"],
      "id": "97",
      "latitude": "40.697207",
      "longitude": "-73.935657",
      "name": "Myrtle Av"
    },
    {
      "borough": "Bk",
      "daytimeRoutes": ["J", "M"],
      "id": "98",
      "latitude": "40.70026",
      "longitude": "-73.941126",
      "name": "Flushing Av"
    },
    {
      "borough": "Bk",
      "daytimeRoutes": ["J", "M"],
      "id": "99",
      "latitude": "40.703869",
      "longitude": "-73.947408",
      "name": "Lorimer St"
    },
    {
      "borough": "Bk",
      "daytimeRoutes": ["J", "M"],
      "id": "100",
      "latitude": "40.70687",
      "longitude": "-73.953431",
      "name": "Hewes St"
    },
    {
      "borough": "Bk",
      "daytimeRoutes": ["J", "M", "Z"],
      "id": "101",
      "latitude": "40.708359",
      "longitude": "-73.957757",
      "name": "Marcy Av"
    },
    {
      "borough": "M",
      "daytimeRoutes": ["J", "Z"],
      "id": "103",
      "latitude": "40.72028",
      "longitude": "-73.993915",
      "name": "Bowery"
    },
    {
      "borough": "M",
      "daytimeRoutes": ["J", "Z"],
      "id": "107",
      "latitude": "40.706476",
      "longitude": "-74.011056",
      "name": "Broad St"
    },
    {
      "borough": "Q",
      "daytimeRoutes": ["M"],
      "id": "108",
      "latitude": "40.711396",
      "longitude": "-73.889601",
      "name": "Middle Village - Metropolitan Av"
    },
    {
      "borough": "Q",
      "daytimeRoutes": ["M"],
      "id": "109",
      "latitude": "40.706186",
      "longitude": "-73.895877",
      "name": "Fresh Pond Rd"
    },
    {
      "borough": "Q",
      "daytimeRoutes": ["M"],
      "id": "110",
      "latitude": "40.704423",
      "longitude": "-73.903077",
      "name": "Forest Av"
    },
    {
      "borough": "Q",
      "daytimeRoutes": ["M"],
      "id": "111",
      "latitude": "40.702762",
      "longitude": "-73.90774",
      "name": "Seneca Av"
    },
    {
      "borough": "Bk",
      "daytimeRoutes": ["M"],
      "id": "113",
      "latitude": "40.698664",
      "longitude": "-73.919711",
      "name": "Knickerbocker Av"
    },
    {
      "borough": "Bk",
      "daytimeRoutes": ["M"],
      "id": "114",
      "latitude": "40.697857",
      "longitude": "-73.927397",
      "name": "Central Av"
    },
    {
      "borough": "M",
      "daytimeRoutes": ["L"],
      "id": "118",
      "latitude": "40.732849",
      "longitude": "-73.986122",
      "name": "3 Av"
    },
    {
      "borough": "M",
      "daytimeRoutes": ["L"],
      "id": "119",
      "latitude": "40.730953",
      "longitude": "-73.981628",
      "name": "1 Av"
    },
    {
      "borough": "Bk",
      "daytimeRoutes": ["L"],
      "id": "120",
      "latitude": "40.717304",
      "longitude": "-73.956872",
      "name": "Bedford Av"
    },
    {
      "borough": "Bk",
      "daytimeRoutes": ["L"],
      "id": "122",
      "latitude": "40.714565",
      "longitude": "-73.944053",
      "name": "Graham Av"
    },
    {
      "borough": "Bk",
      "daytimeRoutes": ["L"],
      "id": "123",
      "latitude": "40.711926",
      "longitude": "-73.94067",
      "name": "Grand St"
    },
    {
      "borough": "Bk",
      "daytimeRoutes": ["L"],
      "id": "124",
      "latitude": "40.707739",
      "longitude": "-73.93985",
      "name": "Montrose Av"
    },
    {
      "borough": "Bk",
      "daytimeRoutes": ["L"],
      "id": "125",
      "latitude": "40.706152",
      "longitude": "-73.933147",
      "name": "Morgan Av"
    },
    {
      "borough": "Bk",
      "daytimeRoutes": ["L"],
      "id": "126",
      "latitude": "40.706607",
      "longitude": "-73.922913",
      "name": "Jefferson St"
    },
    {
      "borough": "Bk",
      "daytimeRoutes": ["L"],
      "id": "127",
      "latitude": "40.703811",
      "longitude": "-73.918425",
      "name": "DeKalb Av"
    },
    {
      "borough": "Q",
      "daytimeRoutes": ["L"],
      "id": "129",
      "latitude": "40.695602",
      "longitude": "-73.904084",
      "name": "Halsey St"
    },
    {
      "borough": "Bk",
      "daytimeRoutes": ["L"],
      "id": "130",
      "latitude": "40.688764",
      "longitude": "-73.904046",
      "name": "Wilson Av"
    },
    {
      "borough": "Bk",
      "daytimeRoutes": ["L"],
      "id": "131",
      "latitude": "40.682829",
      "longitude": "-73.905249",
      "name": "Bushwick Av - Aberdeen St"
    },
    {
      "borough": "Bk",
      "daytimeRoutes": ["L"],
      "id": "133",
      "latitude": "40.675345",
      "longitude": "-73.903097",
      "name": "Atlantic Av"
    },
    {
      "borough": "Bk",
      "daytimeRoutes": ["L"],
      "id": "134",
      "latitude": "40.669367",
      "longitude": "-73.901975",
      "name": "Sutter Av"
    },
    {
      "borough": "Bk",
      "daytimeRoutes": ["L"],
      "id": "135",
      "latitude": "40.664038",
      "longitude": "-73.900571",
      "name": "Livonia Av"
    },
    {
      "borough": "Bk",
      "daytimeRoutes": ["L"],
      "id": "136",
      "latitude": "40.658733",
      "longitude": "-73.899232",
      "name": "New Lots Av"
    },
    {
      "borough": "Bk",
      "daytimeRoutes": ["L"],
      "id": "137",
      "latitude": "40.650573",
      "longitude": "-73.899485",
      "name": "E 105 St"
    },
    {
      "borough": "Bk",
      "daytimeRoutes": ["L"],
      "id": "138",
      "latitude": "40.646654",
      "longitude": "-73.90185",
      "name": "Canarsie - Rockaway Pkwy"
    },
    {
      "borough": "Bk",
      "daytimeRoutes": ["S"],
      "id": "141",
      "latitude": "40.674772",
      "longitude": "-73.957624",
      "name": "Park Pl"
    },
    {
      "borough": "M",
      "daytimeRoutes": ["A"],
      "id": "143",
      "latitude": "40.868072",
      "longitude": "-73.919899",
      "name": "Inwood - 207 St"
    },
    {
      "borough": "M",
      "daytimeRoutes": ["A"],
      "id": "144",
      "latitude": "40.865491",
      "longitude": "-73.927271",
      "name": "Dyckman St"
    },
    {
      "borough": "M",
      "daytimeRoutes": ["A"],
      "id": "145",
      "latitude": "40.859022",
      "longitude": "-73.93418",
      "name": "190 St"
    },
    {
      "borough": "M",
      "daytimeRoutes": ["A"],
      "id": "146",
      "latitude": "40.851695",
      "longitude": "-73.937969",
      "name": "181 St"
    },
    {
      "borough": "M",
      "daytimeRoutes": ["A"],
      "id": "147",
      "latitude": "40.847391",
      "longitude": "-73.939704",
      "name": "175 St"
    },
    {
      "borough": "M",
      "daytimeRoutes": ["C"],
      "id": "149",
      "latitude": "40.836013",
      "longitude": "-73.939892",
      "name": "163 St - Amsterdam Av"
    },
    {
      "borough": "M",
      "daytimeRoutes": ["C"],
      "id": "150",
      "latitude": "40.830518",
      "longitude": "-73.941514",
      "name": "155 St"
    },
    {
      "borough": "M",
      "daytimeRoutes": ["A", "C", "B", "D"],
      "id": "151",
      "latitude": "40.824783",
      "longitude": "-73.944216",
      "name": "145 St"
    },
    {
      "borough": "M",
      "daytimeRoutes": ["B", "C"],
      "id": "152",
      "latitude": "40.817894",
      "longitude": "-73.947649",
      "name": "135 St"
    },
    {
      "borough": "M",
      "daytimeRoutes": ["A", "B", "C", "D"],
      "id": "153",
      "latitude": "40.811109",
      "longitude": "-73.952343",
      "name": "125 St"
    },
    {
      "borough": "M",
      "daytimeRoutes": ["B", "C"],
      "id": "154",
      "latitude": "40.805085",
      "longitude": "-73.954882",
      "name": "116 St"
    },
    {
      "borough": "M",
      "daytimeRoutes": ["B", "C"],
      "id": "155",
      "latitude": "40.800603",
      "longitude": "-73.958161",
      "name": "Cathedral Pkwy (110 St)"
    },
    {
      "borough": "M",
      "daytimeRoutes": ["B", "C"],
      "id": "156",
      "latitude": "40.796092",
      "longitude": "-73.961454",
      "name": "103 St"
    },
    {
      "borough": "M",
      "daytimeRoutes": ["B", "C"],
      "id": "157",
      "latitude": "40.791642",
      "longitude": "-73.964696",
      "name": "96 St"
    },
    {
      "borough": "M",
      "daytimeRoutes": ["B", "C"],
      "id": "158",
      "latitude": "40.785868",
      "longitude": "-73.968916",
      "name": "86 St"
    },
    {
      "borough": "M",
      "daytimeRoutes": ["B", "C"],
      "id": "159",
      "latitude": "40.781433",
      "longitude": "-73.972143",
      "name": "81 St - Museum of Natural History"
    },
    {
      "borough": "M",
      "daytimeRoutes": ["B", "C"],
      "id": "160",
      "latitude": "40.775594",
      "longitude": "-73.97641",
      "name": "72 St"
    },
    {
      "borough": "M",
      "daytimeRoutes": ["C", "E"],
      "id": "162",
      "latitude": "40.762456",
      "longitude": "-73.985984",
      "name": "50 St"
    },
    {
      "borough": "M",
      "daytimeRoutes": ["A", "C", "E"],
      "id": "164",
      "latitude": "40.752287",
      "longitude": "-73.993391",
      "name": "34 St - Penn Station"
    },
    {
      "borough": "M",
      "daytimeRoutes": ["C", "E"],
      "id": "165",
      "latitude": "40.745906",
      "longitude": "-73.998041",
      "name": "23 St"
    },
    {
      "borough": "M",
      "daytimeRoutes": ["A", "C", "E", "B", "D", "F", "M"],
      "id": "167",
      "latitude": "40.732338",
      "longitude": "-74.000495",
      "name": "W 4 St"
    },
    {
      "borough": "M",
      "daytimeRoutes": ["C", "E"],
      "id": "168",
      "latitude": "40.726227",
      "longitude": "-74.003739",
      "name": "Spring St"
    },
    {
      "borough": "M",
      "daytimeRoutes": ["A", "C", "E"],
      "id": "169",
      "latitude": "40.720824",
      "longitude": "-74.005229",
      "name": "Canal St"
    },
    {
      "borough": "Bk",
      "daytimeRoutes": ["A", "C"],
      "id": "173",
      "latitude": "40.699337",
      "longitude": "-73.990531",
      "name": "High St"
    },
    {
      "borough": "Bk",
      "daytimeRoutes": ["A", "C", "G"],
      "id": "175",
      "latitude": "40.688484",
      "longitude": "-73.985001",
      "name": "Hoyt - Schermerhorn Sts"
    },
    {
      "borough": "Bk",
      "daytimeRoutes": ["C"],
      "id": "176",
      "latitude": "40.686113",
      "longitude": "-73.973946",
      "name": "Lafayette Av"
    },
    {
      "borough": "Bk",
      "daytimeRoutes": ["C"],
      "id": "177",
      "latitude": "40.683263",
      "longitude": "-73.965838",
      "name": "Clinton - Washington Avs"
    },
    {
      "borough": "Bk",
      "daytimeRoutes": ["A", "C"],
      "id": "179",
      "latitude": "40.680438",
      "longitude": "-73.950426",
      "name": "Nostrand Av"
    },
    {
      "borough": "Bk",
      "daytimeRoutes": ["C"],
      "id": "180",
      "latitude": "40.679921",
      "longitude": "-73.940858",
      "name": "Kingston - Throop Avs"
    },
    {
      "borough": "Bk",
      "daytimeRoutes": ["A", "C"],
      "id": "181",
      "latitude": "40.679364",
      "longitude": "-73.930729",
      "name": "Utica Av"
    },
    {
      "borough": "Bk",
      "daytimeRoutes": ["C"],
      "id": "182",
      "latitude": "40.678822",
      "longitude": "-73.920786",
      "name": "Ralph Av"
    },
    {
      "borough": "Bk",
      "daytimeRoutes": ["C"],
      "id": "183",
      "latitude": "40.67834",
      "longitude": "-73.911946",
      "name": "Rockaway Av"
    },
    {
      "borough": "Bk",
      "daytimeRoutes": ["C"],
      "id": "185",
      "latitude": "40.674542",
      "longitude": "-73.896548",
      "name": "Liberty Av"
    },
    {
      "borough": "Bk",
      "daytimeRoutes": ["C"],
      "id": "186",
      "latitude": "40.67271",
      "longitude": "-73.890358",
      "name": "Van Siclen Av"
    },
    {
      "borough": "Bk",
      "daytimeRoutes": ["C"],
      "id": "187",
      "latitude": "40.67413",
      "longitude": "-73.88075",
      "name": "Shepherd Av"
    },
    {
      "borough": "Bk",
      "daytimeRoutes": ["A", "C"],
      "id": "188",
      "latitude": "40.675377",
      "longitude": "-73.872106",
      "name": "Euclid Av"
    },
    {
      "borough": "Bk",
      "daytimeRoutes": ["A"],
      "id": "189",
      "latitude": "40.677044",
      "longitude": "-73.86505",
      "name": "Grant Av"
    },
    {
      "borough": "Q",
      "daytimeRoutes": ["A"],
      "id": "190",
      "latitude": "40.679371",
      "longitude": "-73.858992",
      "name": "80 St"
    },
    {
      "borough": "Q",
      "daytimeRoutes": ["A"],
      "id": "191",
      "latitude": "40.679843",
      "longitude": "-73.85147",
      "name": "88 St"
    },
    {
      "borough": "Q",
      "daytimeRoutes": ["A"],
      "id": "192",
      "latitude": "40.680429",
      "longitude": "-73.843853",
      "name": "Rockaway Blvd"
    },
    {
      "borough": "Q",
      "daytimeRoutes": ["A"],
      "id": "193",
      "latitude": "40.681711",
      "longitude": "-73.837683",
      "name": "104 St"
    },
    {
      "borough": "Q",
      "daytimeRoutes": ["A"],
      "id": "194",
      "latitude": "40.684331",
      "longitude": "-73.832163",
      "name": "111 St"
    },
    {
      "borough": "Q",
      "daytimeRoutes": ["A"],
      "id": "195",
      "latitude": "40.685951",
      "longitude": "-73.825798",
      "name": "Ozone Park - Lefferts Blvd"
    },
    {
      "borough": "Q",
      "daytimeRoutes": ["A"],
      "id": "196",
      "latitude": "40.672097",
      "longitude": "-73.835919",
      "name": "Aqueduct Racetrack"
    },
    {
      "borough": "Q",
      "daytimeRoutes": ["A"],
      "id": "197",
      "latitude": "40.668234",
      "longitude": "-73.834058",
      "name": "Aqueduct - N Conduit Av"
    },
    {
      "borough": "Q",
      "daytimeRoutes": ["A"],
      "id": "198",
      "latitude": "40.660476",
      "longitude": "-73.830301",
      "name": "Howard Beach - JFK Airport"
    },
    {
      "borough": "Q",
      "daytimeRoutes": ["A", "S"],
      "id": "199",
      "latitude": "40.608382",
      "longitude": "-73.815925",
      "name": "Broad Channel"
    },
    {
      "borough": "Q",
      "daytimeRoutes": ["A", "S"],
      "id": "200",
      "latitude": "40.588034",
      "longitude": "-73.813641",
      "name": "Beach 90 St"
    },
    {
      "borough": "Q",
      "daytimeRoutes": ["A", "S"],
      "id": "201",
      "latitude": "40.585307",
      "longitude": "-73.820558",
      "name": "Beach 98 St"
    },
    {
      "borough": "Q",
      "daytimeRoutes": ["A", "S"],
      "id": "202",
      "latitude": "40.583209",
      "longitude": "-73.827559",
      "name": "Beach 105 St"
    },
    {
      "borough": "Q",
      "daytimeRoutes": ["A", "S"],
      "id": "203",
      "latitude": "40.580903",
      "longitude": "-73.835592",
      "name": "Rockaway Park - Beach 116 St"
    },
    {
      "borough": "Q",
      "daytimeRoutes": ["A"],
      "id": "204",
      "latitude": "40.590927",
      "longitude": "-73.796924",
      "name": "Beach 67 St"
    },
    {
      "borough": "Q",
      "daytimeRoutes": ["A"],
      "id": "205",
      "latitude": "40.592374",
      "longitude": "-73.788522",
      "name": "Beach 60 St"
    },
    {
      "borough": "Q",
      "daytimeRoutes": ["A"],
      "id": "206",
      "latitude": "40.592943",
      "longitude": "-73.776013",
      "name": "Beach 44 St"
    },
    {
      "borough": "Q",
      "daytimeRoutes": ["A"],
      "id": "207",
      "latitude": "40.595398",
      "longitude": "-73.768175",
      "name": "Beach 36 St"
    },
    {
      "borough": "Q",
      "daytimeRoutes": ["A"],
      "id": "208",
      "latitude": "40.600066",
      "longitude": "-73.761353",
      "name": "Beach 25 St"
    },
    {
      "borough": "Q",
      "daytimeRoutes": ["A"],
      "id": "209",
      "latitude": "40.603995",
      "longitude": "-73.755405",
      "name": "Far Rockaway - Mott Av"
    },
    {
      "borough": "Bx",
      "daytimeRoutes": ["D"],
      "id": "210",
      "latitude": "40.874811",
      "longitude": "-73.878855",
      "name": "Norwood - 205 St"
    },
    {
      "borough": "Bx",
      "daytimeRoutes": ["B", "D"],
      "id": "211",
      "latitude": "40.873244",
      "longitude": "-73.887138",
      "name": "Bedford Park Blvd"
    },
    {
      "borough": "Bx",
      "daytimeRoutes": ["B", "D"],
      "id": "212",
      "latitude": "40.866978",
      "longitude": "-73.893509",
      "name": "Kingsbridge Rd"
    },
    {
      "borough": "Bx",
      "daytimeRoutes": ["B", "D"],
      "id": "213",
      "latitude": "40.861296",
      "longitude": "-73.897749",
      "name": "Fordham Rd"
    },
    {
      "borough": "Bx",
      "daytimeRoutes": ["B", "D"],
      "id": "214",
      "latitude": "40.856093",
      "longitude": "-73.900741",
      "name": "182-183 Sts"
    },
    {
      "borough": "Bx",
      "daytimeRoutes": ["B", "D"],
      "id": "215",
      "latitude": "40.85041",
      "longitude": "-73.905227",
      "name": "Tremont Av"
    },
    {
      "borough": "Bx",
      "daytimeRoutes": ["B", "D"],
      "id": "216",
      "latitude": "40.8459",
      "longitude": "-73.910136",
      "name": "174-175 Sts"
    },
    {
      "borough": "Bx",
      "daytimeRoutes": ["B", "D"],
      "id": "217",
      "latitude": "40.839306",
      "longitude": "-73.9134",
      "name": "170 St"
    },
    {
      "borough": "Bx",
      "daytimeRoutes": ["B", "D"],
      "id": "218",
      "latitude": "40.833771",
      "longitude": "-73.91844",
      "name": "167 St"
    },
    {
      "borough": "M",
      "daytimeRoutes": ["B", "D"],
      "id": "220",
      "latitude": "40.830135",
      "longitude": "-73.938209",
      "name": "155 St"
    },
    {
      "borough": "Q",
      "daytimeRoutes": ["F"],
      "id": "221",
      "latitude": "40.754203",
      "longitude": "-73.942836",
      "name": "21 St - Queensbridge"
    },
    {
      "borough": "M",
      "daytimeRoutes": ["F"],
      "id": "222",
      "latitude": "40.759145",
      "longitude": "-73.95326",
      "name": "Roosevelt Island"
    },
    {
      "borough": "M",
      "daytimeRoutes": ["F", "Q"],
      "id": "223",
      "latitude": "40.764629",
      "longitude": "-73.966113",
      "name": "Lexington Av/63 St"
    },
    {
      "borough": "M",
      "daytimeRoutes": ["F"],
      "id": "224",
      "latitude": "40.763972",
      "longitude": "-73.97745",
      "name": "57 St"
    },
    {
      "borough": "M",
      "daytimeRoutes": ["B", "D", "F", "M"],
      "id": "225",
      "latitude": "40.758663",
      "longitude": "-73.981329",
      "name": "47-50 Sts - Rockefeller Ctr"
    },
    {
      "borough": "M",
      "daytimeRoutes": ["F", "M"],
      "id": "228",
      "latitude": "40.742878",
      "longitude": "-73.992821",
      "name": "23 St"
    },
    {
      "borough": "M",
      "daytimeRoutes": ["B", "D"],
      "id": "231",
      "latitude": "40.718267",
      "longitude": "-73.993753",
      "name": "Grand St"
    },
    {
      "borough": "M",
      "daytimeRoutes": ["F"],
      "id": "232",
      "latitude": "40.723402",
      "longitude": "-73.989938",
      "name": "2 Av"
    },
    {
      "borough": "M",
      "daytimeRoutes": ["F"],
      "id": "234",
      "latitude": "40.713715",
      "longitude": "-73.990173",
      "name": "East Broadway"
    },
    {
      "borough": "Bk",
      "daytimeRoutes": ["F"],
      "id": "235",
      "latitude": "40.701397",
      "longitude": "-73.986751",
      "name": "York St"
    },
    {
      "borough": "Bk",
      "daytimeRoutes": ["F", "G"],
      "id": "236",
      "latitude": "40.686145",
      "longitude": "-73.990862",
      "name": "Bergen St"
    },
    {
      "borough": "Bk",
      "daytimeRoutes": ["F", "G"],
      "id": "237",
      "latitude": "40.680303",
      "longitude": "-73.995048",
      "name": "Carroll St"
    },
    {
      "borough": "Bk",
      "daytimeRoutes": ["F", "G"],
      "id": "238",
      "latitude": "40.67358",
      "longitude": "-73.995959",
      "name": "Smith - 9 Sts"
    },
    {
      "borough": "Bk",
      "daytimeRoutes": ["F", "G"],
      "id": "240",
      "latitude": "40.666271",
      "longitude": "-73.980305",
      "name": "7 Av"
    },
    {
      "borough": "Bk",
      "daytimeRoutes": ["F", "G"],
      "id": "241",
      "latitude": "40.660365",
      "longitude": "-73.979493",
      "name": "15 St - Prospect Park"
    },
    {
      "borough": "Bk",
      "daytimeRoutes": ["F", "G"],
      "id": "242",
      "latitude": "40.650782",
      "longitude": "-73.975776",
      "name": "Fort Hamilton Pkwy"
    },
    {
      "borough": "Bk",
      "daytimeRoutes": ["F"],
      "id": "243",
      "latitude": "40.644041",
      "longitude": "-73.979678",
      "name": "Church Av"
    },
    {
      "borough": "Bk",
      "daytimeRoutes": ["F"],
      "id": "244",
      "latitude": "40.636119",
      "longitude": "-73.978172",
      "name": "Ditmas Av"
    },
    {
      "borough": "Bk",
      "daytimeRoutes": ["F"],
      "id": "245",
      "latitude": "40.629755",
      "longitude": "-73.976971",
      "name": "18 Av"
    },
    {
      "borough": "Bk",
      "daytimeRoutes": ["F"],
      "id": "246",
      "latitude": "40.625322",
      "longitude": "-73.976127",
      "name": "Avenue I"
    },
    {
      "borough": "Bk",
      "daytimeRoutes": ["F"],
      "id": "247",
      "latitude": "40.620769",
      "longitude": "-73.975264",
      "name": "Bay Pkwy"
    },
    {
      "borough": "Bk",
      "daytimeRoutes": ["F"],
      "id": "248",
      "latitude": "40.61514",
      "longitude": "-73.974197",
      "name": "Avenue N"
    },
    {
      "borough": "Bk",
      "daytimeRoutes": ["F"],
      "id": "249",
      "latitude": "40.608944",
      "longitude": "-73.973022",
      "name": "Avenue P"
    },
    {
      "borough": "Bk",
      "daytimeRoutes": ["F"],
      "id": "250",
      "latitude": "40.603217",
      "longitude": "-73.972361",
      "name": "Kings Hwy"
    },
    {
      "borough": "Bk",
      "daytimeRoutes": ["F"],
      "id": "251",
      "latitude": "40.596063",
      "longitude": "-73.973357",
      "name": "Avenue U"
    },
    {
      "borough": "Bk",
      "daytimeRoutes": ["F"],
      "id": "252",
      "latitude": "40.58962",
      "longitude": "-73.97425",
      "name": "Avenue X"
    },
    {
      "borough": "Bk",
      "daytimeRoutes": ["F"],
      "id": "253",
      "latitude": "40.581011",
      "longitude": "-73.974574",
      "name": "Neptune Av"
    },
    {
      "borough": "Q",
      "daytimeRoutes": ["F"],
      "id": "254",
      "latitude": "40.712646",
      "longitude": "-73.783817",
      "name": "Jamaica - 179 St"
    },
    {
      "borough": "Q",
      "daytimeRoutes": ["F"],
      "id": "255",
      "latitude": "40.71047",
      "longitude": "-73.793604",
      "name": "169 St"
    },
    {
      "borough": "Q",
      "daytimeRoutes": ["F"],
      "id": "256",
      "latitude": "40.707564",
      "longitude": "-73.803326",
      "name": "Parsons Blvd"
    },
    {
      "borough": "Q",
      "daytimeRoutes": ["F"],
      "id": "257",
      "latitude": "40.70546",
      "longitude": "-73.810708",
      "name": "Sutphin Blvd"
    },
    {
      "borough": "Q",
      "daytimeRoutes": ["E", "F"],
      "id": "258",
      "latitude": "40.709179",
      "longitude": "-73.820574",
      "name": "Briarwood - Van Wyck Blvd"
    },
    {
      "borough": "Q",
      "daytimeRoutes": ["E", "F"],
      "id": "259",
      "latitude": "40.714441",
      "longitude": "-73.831008",
      "name": "Kew Gardens - Union Tpke"
    },
    {
      "borough": "Q",
      "daytimeRoutes": ["E", "F"],
      "id": "260",
      "latitude": "40.718331",
      "longitude": "-73.837324",
      "name": "75 Av"
    },
    {
      "borough": "Q",
      "daytimeRoutes": ["E", "F", "M", "R"],
      "id": "261",
      "latitude": "40.721691",
      "longitude": "-73.844521",
      "name": "Forest Hills - 71 Av"
    },
    {
      "borough": "Q",
      "daytimeRoutes": ["M", "R"],
      "id": "262",
      "latitude": "40.726523",
      "longitude": "-73.852719",
      "name": "67 Av"
    },
    {
      "borough": "Q",
      "daytimeRoutes": ["M", "R"],
      "id": "263",
      "latitude": "40.729846",
      "longitude": "-73.861604",
      "name": "63 Dr - Rego Park"
    },
    {
      "borough": "Q",
      "daytimeRoutes": ["M", "R"],
      "id": "264",
      "latitude": "40.733106",
      "longitude": "-73.869229",
      "name": "Woodhaven Blvd"
    },
    {
      "borough": "Q",
      "daytimeRoutes": ["M", "R"],
      "id": "265",
      "latitude": "40.737015",
      "longitude": "-73.877223",
      "name": "Grand Av - Newtown"
    },
    {
      "borough": "Q",
      "daytimeRoutes": ["M", "R"],
      "id": "266",
      "latitude": "40.742454",
      "longitude": "-73.882017",
      "name": "Elmhurst Av"
    },
    {
      "borough": "Q",
      "daytimeRoutes": ["M", "R"],
      "id": "268",
      "latitude": "40.749669",
      "longitude": "-73.898453",
      "name": "65 St"
    },
    {
      "borough": "Q",
      "daytimeRoutes": ["M", "R"],
      "id": "269",
      "latitude": "40.752885",
      "longitude": "-73.906006",
      "name": "Northern Blvd"
    },
    {
      "borough": "Q",
      "daytimeRoutes": ["M", "R"],
      "id": "270",
      "latitude": "40.756312",
      "longitude": "-73.913333",
      "name": "46 St"
    },
    {
      "borough": "Q",
      "daytimeRoutes": ["M", "R"],
      "id": "271",
      "latitude": "40.756879",
      "longitude": "-73.92074",
      "name": "Steinway St"
    },
    {
      "borough": "Q",
      "daytimeRoutes": ["M", "R"],
      "id": "272",
      "latitude": "40.752039",
      "longitude": "-73.928781",
      "name": "36 St"
    },
    {
      "borough": "Q",
      "daytimeRoutes": ["E", "M", "R"],
      "id": "273",
      "latitude": "40.748973",
      "longitude": "-73.937243",
      "name": "Queens Plaza"
    },
    {
      "borough": "M",
      "daytimeRoutes": ["E", "M"],
      "id": "276",
      "latitude": "40.760167",
      "longitude": "-73.975224",
      "name": "5 Av/53 St"
    },
    {
      "borough": "M",
      "daytimeRoutes": ["B", "D", "E"],
      "id": "277",
      "latitude": "40.762862",
      "longitude": "-73.981637",
      "name": "7 Av"
    },
    {
      "borough": "Q",
      "daytimeRoutes": ["E", "J", "Z"],
      "id": "278",
      "latitude": "40.702147",
      "longitude": "-73.801109",
      "name": "Jamaica Center - Parsons/Archer"
    },
    {
      "borough": "Q",
      "daytimeRoutes": ["E", "J", "Z"],
      "id": "279",
      "latitude": "40.700486",
      "longitude": "-73.807969",
      "name": "Sutphin Blvd - Archer Av - JFK Airport"
    },
    {
      "borough": "Q",
      "daytimeRoutes": ["E"],
      "id": "280",
      "latitude": "40.702566",
      "longitude": "-73.816859",
      "name": "Jamaica - Van Wyck"
    },
    {
      "borough": "Q",
      "daytimeRoutes": ["G"],
      "id": "282",
      "latitude": "40.744065",
      "longitude": "-73.949724",
      "name": "21 St"
    },
    {
      "borough": "Bk",
      "daytimeRoutes": ["G"],
      "id": "283",
      "latitude": "40.731352",
      "longitude": "-73.954449",
      "name": "Greenpoint Av"
    },
    {
      "borough": "Bk",
      "daytimeRoutes": ["G"],
      "id": "284",
      "latitude": "40.724635",
      "longitude": "-73.951277",
      "name": "Nassau Av"
    },
    {
      "borough": "Bk",
      "daytimeRoutes": ["G"],
      "id": "286",
      "latitude": "40.706092",
      "longitude": "-73.950308",
      "name": "Broadway"
    },
    {
      "borough": "Bk",
      "daytimeRoutes": ["G"],
      "id": "287",
      "latitude": "40.700377",
      "longitude": "-73.950234",
      "name": "Flushing Av"
    },
    {
      "borough": "Bk",
      "daytimeRoutes": ["G"],
      "id": "288",
      "latitude": "40.694568",
      "longitude": "-73.949046",
      "name": "Myrtle - Willoughby Avs"
    },
    {
      "borough": "Bk",
      "daytimeRoutes": ["G"],
      "id": "289",
      "latitude": "40.689627",
      "longitude": "-73.953522",
      "name": "Bedford - Nostrand Avs"
    },
    {
      "borough": "Bk",
      "daytimeRoutes": ["G"],
      "id": "290",
      "latitude": "40.688873",
      "longitude": "-73.96007",
      "name": "Classon Av"
    },
    {
      "borough": "Bk",
      "daytimeRoutes": ["G"],
      "id": "291",
      "latitude": "40.688089",
      "longitude": "-73.966839",
      "name": "Clinton - Washington Avs"
    },
    {
      "borough": "Bk",
      "daytimeRoutes": ["G"],
      "id": "292",
      "latitude": "40.687119",
      "longitude": "-73.975375",
      "name": "Fulton St"
    },
    {
      "borough": "Bx",
      "daytimeRoutes": ["1"],
      "id": "293",
      "latitude": "40.889248",
      "longitude": "-73.898583",
      "name": "Van Cortlandt Park - 242 St"
    },
    {
      "borough": "Bx",
      "daytimeRoutes": ["1"],
      "id": "294",
      "latitude": "40.884667",
      "longitude": "-73.90087",
      "name": "238 St"
    },
    {
      "borough": "Bx",
      "daytimeRoutes": ["1"],
      "id": "295",
      "latitude": "40.878856",
      "longitude": "-73.904834",
      "name": "231 St"
    },
    {
      "borough": "M",
      "daytimeRoutes": ["1"],
      "id": "296",
      "latitude": "40.874561",
      "longitude": "-73.909831",
      "name": "Marble Hill - 225 St"
    },
    {
      "borough": "M",
      "daytimeRoutes": ["1"],
      "id": "297",
      "latitude": "40.869444",
      "longitude": "-73.915279",
      "name": "215 St"
    },
    {
      "borough": "M",
      "daytimeRoutes": ["1"],
      "id": "298",
      "latitude": "40.864621",
      "longitude": "-73.918822",
      "name": "207 St"
    },
    {
      "borough": "M",
      "daytimeRoutes": ["1"],
      "id": "299",
      "latitude": "40.860531",
      "longitude": "-73.925536",
      "name": "Dyckman St"
    },
    {
      "borough": "M",
      "daytimeRoutes": ["1"],
      "id": "300",
      "latitude": "40.855225",
      "longitude": "-73.929412",
      "name": "191 St"
    },
    {
      "borough": "M",
      "daytimeRoutes": ["1"],
      "id": "301",
      "latitude": "40.849505",
      "longitude": "-73.933596",
      "name": "181 St"
    },
    {
      "borough": "M",
      "daytimeRoutes": ["1"],
      "id": "303",
      "latitude": "40.834041",
      "longitude": "-73.94489",
      "name": "157 St"
    },
    {
      "borough": "M",
      "daytimeRoutes": ["1"],
      "id": "304",
      "latitude": "40.826551",
      "longitude": "-73.95036",
      "name": "145 St"
    },
    {
      "borough": "M",
      "daytimeRoutes": ["1"],
      "id": "305",
      "latitude": "40.822008",
      "longitude": "-73.953676",
      "name": "137 St - City College"
    },
    {
      "borough": "M",
      "daytimeRoutes": ["1"],
      "id": "306",
      "latitude": "40.815581",
      "longitude": "-73.958372",
      "name": "125 St"
    },
    {
      "borough": "M",
      "daytimeRoutes": ["1"],
      "id": "307",
      "latitude": "40.807722",
      "longitude": "-73.96411",
      "name": "116 St - Columbia University"
    },
    {
      "borough": "M",
      "daytimeRoutes": ["1"],
      "id": "308",
      "latitude": "40.803967",
      "longitude": "-73.966847",
      "name": "Cathedral Pkwy"
    },
    {
      "borough": "M",
      "daytimeRoutes": ["1"],
      "id": "309",
      "latitude": "40.799446",
      "longitude": "-73.968379",
      "name": "103 St"
    },
    {
      "borough": "M",
      "daytimeRoutes": ["1", "2", "3"],
      "id": "310",
      "latitude": "40.793919",
      "longitude": "-73.972323",
      "name": "96 St"
    },
    {
      "borough": "M",
      "daytimeRoutes": ["1"],
      "id": "311",
      "latitude": "40.788644",
      "longitude": "-73.976218",
      "name": "86 St"
    },
    {
      "borough": "M",
      "daytimeRoutes": ["1"],
      "id": "312",
      "latitude": "40.783934",
      "longitude": "-73.979917",
      "name": "79 St"
    },
    {
      "borough": "M",
      "daytimeRoutes": ["1", "2", "3"],
      "id": "313",
      "latitude": "40.778453",
      "longitude": "-73.98197",
      "name": "72 St"
    },
    {
      "borough": "M",
      "daytimeRoutes": ["1"],
      "id": "314",
      "latitude": "40.77344",
      "longitude": "-73.982209",
      "name": "66 St - Lincoln Center"
    },
    {
      "borough": "M",
      "daytimeRoutes": ["1"],
      "id": "316",
      "latitude": "40.761728",
      "longitude": "-73.983849",
      "name": "50 St"
    },
    {
      "borough": "M",
      "daytimeRoutes": ["1", "2", "3"],
      "id": "318",
      "latitude": "40.750373",
      "longitude": "-73.991057",
      "name": "34 St - Penn Station"
    },
    {
      "borough": "M",
      "daytimeRoutes": ["1"],
      "id": "319",
      "latitude": "40.747215",
      "longitude": "-73.993365",
      "name": "28 St"
    },
    {
      "borough": "M",
      "daytimeRoutes": ["1"],
      "id": "320",
      "latitude": "40.744081",
      "longitude": "-73.995657",
      "name": "23 St"
    },
    {
      "borough": "M",
      "daytimeRoutes": ["1"],
      "id": "321",
      "latitude": "40.74104",
      "longitude": "-73.997871",
      "name": "18 St"
    },
    {
      "borough": "M",
      "daytimeRoutes": ["1"],
      "id": "323",
      "latitude": "40.733422",
      "longitude": "-74.002906",
      "name": "Christopher St - Sheridan Sq"
    },
    {
      "borough": "M",
      "daytimeRoutes": ["1"],
      "id": "324",
      "latitude": "40.728251",
      "longitude": "-74.005367",
      "name": "Houston St"
    },
    {
      "borough": "M",
      "daytimeRoutes": ["1"],
      "id": "325",
      "latitude": "40.722854",
      "longitude": "-74.006277",
      "name": "Canal St"
    },
    {
      "borough": "M",
      "daytimeRoutes": ["1"],
      "id": "326",
      "latitude": "40.719318",
      "longitude": "-74.006886",
      "name": "Franklin St"
    },
    {
      "borough": "M",
      "daytimeRoutes": ["1", "2", "3"],
      "id": "327",
      "latitude": "40.715478",
      "longitude": "-74.009266",
      "name": "Chambers St"
    },
    {
      "borough": "M",
      "daytimeRoutes": ["1"],
      "id": "328",
      "latitude": "40.711835",
      "longitude": "-74.012188",
      "name": "WTC Cortlandt"
    },
    {
      "borough": "M",
      "daytimeRoutes": ["1"],
      "id": "329",
      "latitude": "40.707513",
      "longitude": "-74.013783",
      "name": "Rector St"
    },
    {
      "borough": "M",
      "daytimeRoutes": ["2", "3"],
      "id": "333",
      "latitude": "40.706821",
      "longitude": "-74.0091",
      "name": "Wall St"
    },
    {
      "borough": "Bk",
      "daytimeRoutes": ["2", "3"],
      "id": "334",
      "latitude": "40.697466",
      "longitude": "-73.993086",
      "name": "Clark St"
    },
    {
      "borough": "Bk",
      "daytimeRoutes": ["2", "3"],
      "id": "336",
      "latitude": "40.690545",
      "longitude": "-73.985065",
      "name": "Hoyt St"
    },
    {
      "borough": "Bk",
      "daytimeRoutes": ["2", "3", "4", "5"],
      "id": "337",
      "latitude": "40.688246",
      "longitude": "-73.980492",
      "name": "Nevins St"
    },
    {
      "borough": "Bk",
      "daytimeRoutes": ["2", "3"],
      "id": "339",
      "latitude": "40.680829",
      "longitude": "-73.975098",
      "name": "Bergen St"
    },
    {
      "borough": "Bk",
      "daytimeRoutes": ["2", "3"],
      "id": "340",
      "latitude": "40.675235",
      "longitude": "-73.971046",
      "name": "Grand Army Plaza"
    },
    {
      "borough": "Bk",
      "daytimeRoutes": ["2", "3"],
      "id": "341",
      "latitude": "40.671987",
      "longitude": "-73.964375",
      "name": "Eastern Pkwy - Brooklyn Museum"
    },
    {
      "borough": "Bk",
      "daytimeRoutes": ["3"],
      "id": "343",
      "latitude": "40.669847",
      "longitude": "-73.950466",
      "name": "Nostrand Av"
    },
    {
      "borough": "Bk",
      "daytimeRoutes": ["3"],
      "id": "344",
      "latitude": "40.669399",
      "longitude": "-73.942161",
      "name": "Kingston Av"
    },
    {
      "borough": "Bk",
      "daytimeRoutes": ["3", "4"],
      "id": "345",
      "latitude": "40.668897",
      "longitude": "-73.932942",
      "name": "Crown Hts - Utica Av"
    },
    {
      "borough": "Bk",
      "daytimeRoutes": ["3"],
      "id": "346",
      "latitude": "40.664717",
      "longitude": "-73.92261",
      "name": "Sutter Av - Rutland Rd"
    },
    {
      "borough": "Bk",
      "daytimeRoutes": ["3"],
      "id": "347",
      "latitude": "40.661453",
      "longitude": "-73.916327",
      "name": "Saratoga Av"
    },
    {
      "borough": "Bk",
      "daytimeRoutes": ["3"],
      "id": "348",
      "latitude": "40.662549",
      "longitude": "-73.908946",
      "name": "Rockaway Av"
    },
    {
      "borough": "Bk",
      "daytimeRoutes": ["3"],
      "id": "349",
      "latitude": "40.663515",
      "longitude": "-73.902447",
      "name": "Junius St"
    },
    {
      "borough": "Bk",
      "daytimeRoutes": ["3"],
      "id": "350",
      "latitude": "40.664635",
      "longitude": "-73.894895",
      "name": "Pennsylvania Av"
    },
    {
      "borough": "Bk",
      "daytimeRoutes": ["3"],
      "id": "351",
      "latitude": "40.665449",
      "longitude": "-73.889395",
      "name": "Van Siclen Av"
    },
    {
      "borough": "Bk",
      "daytimeRoutes": ["3"],
      "id": "352",
      "latitude": "40.666235",
      "longitude": "-73.884079",
      "name": "New Lots Av"
    },
    {
      "borough": "Bk",
      "daytimeRoutes": ["2", "5"],
      "id": "353",
      "latitude": "40.667883",
      "longitude": "-73.950683",
      "name": "President St"
    },
    {
      "borough": "Bk",
      "daytimeRoutes": ["2", "5"],
      "id": "354",
      "latitude": "40.662742",
      "longitude": "-73.95085",
      "name": "Sterling St"
    },
    {
      "borough": "Bk",
      "daytimeRoutes": ["2", "5"],
      "id": "355",
      "latitude": "40.656652",
      "longitude": "-73.9502",
      "name": "Winthrop St"
    },
    {
      "borough": "Bk",
      "daytimeRoutes": ["2", "5"],
      "id": "356",
      "latitude": "40.650843",
      "longitude": "-73.949575",
      "name": "Church Av"
    },
    {
      "borough": "Bk",
      "daytimeRoutes": ["2", "5"],
      "id": "357",
      "latitude": "40.645098",
      "longitude": "-73.948959",
      "name": "Beverly Rd"
    },
    {
      "borough": "Bk",
      "daytimeRoutes": ["2", "5"],
      "id": "358",
      "latitude": "40.639967",
      "longitude": "-73.948411",
      "name": "Newkirk Av"
    },
    {
      "borough": "Bk",
      "daytimeRoutes": ["2", "5"],
      "id": "359",
      "latitude": "40.632836",
      "longitude": "-73.947642",
      "name": "Flatbush Av - Brooklyn College"
    },
    {
      "borough": "Bx",
      "daytimeRoutes": ["6"],
      "id": "360",
      "latitude": "40.852462",
      "longitude": "-73.828121",
      "name": "Pelham Bay Park"
    },
    {
      "borough": "Bx",
      "daytimeRoutes": ["6"],
      "id": "361",
      "latitude": "40.84681",
      "longitude": "-73.832569",
      "name": "Buhre Av"
    },
    {
      "borough": "Bx",
      "daytimeRoutes": ["6"],
      "id": "362",
      "latitude": "40.843863",
      "longitude": "-73.836322",
      "name": "Middletown Rd"
    },
    {
      "borough": "Bx",
      "daytimeRoutes": ["6"],
      "id": "363",
      "latitude": "40.839892",
      "longitude": "-73.842952",
      "name": "Westchester Sq - E Tremont Av"
    },
    {
      "borough": "Bx",
      "daytimeRoutes": ["6"],
      "id": "364",
      "latitude": "40.836488",
      "longitude": "-73.847036",
      "name": "Zerega Av"
    },
    {
      "borough": "Bx",
      "daytimeRoutes": ["6"],
      "id": "365",
      "latitude": "40.834255",
      "longitude": "-73.851222",
      "name": "Castle Hill Av"
    },
    {
      "borough": "Bx",
      "daytimeRoutes": ["6"],
      "id": "366",
      "latitude": "40.833226",
      "longitude": "-73.860816",
      "name": "Parkchester"
    },
    {
      "borough": "Bx",
      "daytimeRoutes": ["6"],
      "id": "367",
      "latitude": "40.831509",
      "longitude": "-73.867618",
      "name": "St Lawrence Av"
    },
    {
      "borough": "Bx",
      "daytimeRoutes": ["6"],
      "id": "368",
      "latitude": "40.829521",
      "longitude": "-73.874516",
      "name": "Morrison Av- Sound View"
    },
    {
      "borough": "Bx",
      "daytimeRoutes": ["6"],
      "id": "369",
      "latitude": "40.828584",
      "longitude": "-73.879159",
      "name": "Elder Av"
    },
    {
      "borough": "Bx",
      "daytimeRoutes": ["6"],
      "id": "370",
      "latitude": "40.826525",
      "longitude": "-73.886283",
      "name": "Whitlock Av"
    },
    {
      "borough": "Bx",
      "daytimeRoutes": ["6"],
      "id": "371",
      "latitude": "40.820948",
      "longitude": "-73.890549",
      "name": "Hunts Point Av"
    },
    {
      "borough": "Bx",
      "daytimeRoutes": ["6"],
      "id": "372",
      "latitude": "40.816104",
      "longitude": "-73.896435",
      "name": "Longwood Av"
    },
    {
      "borough": "Bx",
      "daytimeRoutes": ["6"],
      "id": "373",
      "latitude": "40.812118",
      "longitude": "-73.904098",
      "name": "E 149 St"
    },
    {
      "borough": "Bx",
      "daytimeRoutes": ["6"],
      "id": "374",
      "latitude": "40.808719",
      "longitude": "-73.907657",
      "name": "E 143 St - St Mary's St"
    },
    {
      "borough": "Bx",
      "daytimeRoutes": ["6"],
      "id": "375",
      "latitude": "40.805368",
      "longitude": "-73.914042",
      "name": "Cypress Av"
    },
    {
      "borough": "Bx",
      "daytimeRoutes": ["6"],
      "id": "376",
      "latitude": "40.807566",
      "longitude": "-73.91924",
      "name": "Brook Av"
    },
    {
      "borough": "Bx",
      "daytimeRoutes": ["6"],
      "id": "377",
      "latitude": "40.810476",
      "longitude": "-73.926138",
      "name": "3 Av - 138 St"
    },
    {
      "borough": "Bx",
      "daytimeRoutes": ["4"],
      "id": "378",
      "latitude": "40.886037",
      "longitude": "-73.878751",
      "name": "Woodlawn"
    },
    {
      "borough": "Bx",
      "daytimeRoutes": ["4"],
      "id": "379",
      "latitude": "40.87975",
      "longitude": "-73.884655",
      "name": "Mosholu Pkwy"
    },
    {
      "borough": "Bx",
      "daytimeRoutes": ["4"],
      "id": "380",
      "latitude": "40.873412",
      "longitude": "-73.890064",
      "name": "Bedford Park Blvd - Lehman College"
    },
    {
      "borough": "Bx",
      "daytimeRoutes": ["4"],
      "id": "381",
      "latitude": "40.86776",
      "longitude": "-73.897174",
      "name": "Kingsbridge Rd"
    },
    {
      "borough": "Bx",
      "daytimeRoutes": ["4"],
      "id": "382",
      "latitude": "40.862803",
      "longitude": "-73.901034",
      "name": "Fordham Rd"
    },
    {
      "borough": "Bx",
      "daytimeRoutes": ["4"],
      "id": "383",
      "latitude": "40.858407",
      "longitude": "-73.903879",
      "name": "183 St"
    },
    {
      "borough": "Bx",
      "daytimeRoutes": ["4"],
      "id": "384",
      "latitude": "40.853453",
      "longitude": "-73.907684",
      "name": "Burnside Av"
    },
    {
      "borough": "Bx",
      "daytimeRoutes": ["4"],
      "id": "385",
      "latitude": "40.84848",
      "longitude": "-73.911794",
      "name": "176 St"
    },
    {
      "borough": "Bx",
      "daytimeRoutes": ["4"],
      "id": "386",
      "latitude": "40.844434",
      "longitude": "-73.914685",
      "name": "Mt Eden Av"
    },
    {
      "borough": "Bx",
      "daytimeRoutes": ["4"],
      "id": "387",
      "latitude": "40.840075",
      "longitude": "-73.917791",
      "name": "170 St"
    },
    {
      "borough": "Bx",
      "daytimeRoutes": ["4"],
      "id": "388",
      "latitude": "40.835537",
      "longitude": "-73.9214",
      "name": "167 St"
    },
    {
      "borough": "Bx",
      "daytimeRoutes": ["4", "5"],
      "id": "391",
      "latitude": "40.813224",
      "longitude": "-73.929849",
      "name": "138 St - Grand Concourse"
    },
    {
      "borough": "M",
      "daytimeRoutes": ["4", "5", "6"],
      "id": "392",
      "latitude": "40.804138",
      "longitude": "-73.937594",
      "name": "125 St"
    },
    {
      "borough": "M",
      "daytimeRoutes": ["6"],
      "id": "393",
      "latitude": "40.798629",
      "longitude": "-73.941617",
      "name": "116 St"
    },
    {
      "borough": "M",
      "daytimeRoutes": ["6"],
      "id": "394",
      "latitude": "40.79502",
      "longitude": "-73.94425",
      "name": "110 St"
    },
    {
      "borough": "M",
      "daytimeRoutes": ["6"],
      "id": "395",
      "latitude": "40.7906",
      "longitude": "-73.947478",
      "name": "103 St"
    },
    {
      "borough": "M",
      "daytimeRoutes": ["6"],
      "id": "396",
      "latitude": "40.785672",
      "longitude": "-73.95107",
      "name": "96 St"
    },
    {
      "borough": "M",
      "daytimeRoutes": ["4", "5", "6"],
      "id": "397",
      "latitude": "40.779492",
      "longitude": "-73.955589",
      "name": "86 St"
    },
    {
      "borough": "M",
      "daytimeRoutes": ["6"],
      "id": "398",
      "latitude": "40.77362",
      "longitude": "-73.959874",
      "name": "77 St"
    },
    {
      "borough": "M",
      "daytimeRoutes": ["6"],
      "id": "399",
      "latitude": "40.768141",
      "longitude": "-73.96387",
      "name": "68 St - Hunter College"
    },
    {
      "borough": "M",
      "daytimeRoutes": ["6"],
      "id": "403",
      "latitude": "40.746081",
      "longitude": "-73.982076",
      "name": "33 St"
    },
    {
      "borough": "M",
      "daytimeRoutes": ["6"],
      "id": "404",
      "latitude": "40.74307",
      "longitude": "-73.984264",
      "name": "28 St"
    },
    {
      "borough": "M",
      "daytimeRoutes": ["6"],
      "id": "405",
      "latitude": "40.739864",
      "longitude": "-73.986599",
      "name": "23 St"
    },
    {
      "borough": "M",
      "daytimeRoutes": ["6"],
      "id": "407",
      "latitude": "40.730054",
      "longitude": "-73.99107",
      "name": "Astor Pl"
    },
    {
      "borough": "M",
      "daytimeRoutes": ["6"],
      "id": "409",
      "latitude": "40.722301",
      "longitude": "-73.997141",
      "name": "Spring St"
    },
    {
      "borough": "M",
      "daytimeRoutes": ["4", "5"],
      "id": "413",
      "latitude": "40.707557",
      "longitude": "-74.011862",
      "name": "Wall St"
    },
    {
      "borough": "M",
      "daytimeRoutes": ["4", "5"],
      "id": "414",
      "latitude": "40.704817",
      "longitude": "-74.014065",
      "name": "Bowling Green"
    },
    {
      "borough": "Bx",
      "daytimeRoutes": ["2"],
      "id": "416",
      "latitude": "40.903125",
      "longitude": "-73.85062",
      "name": "Wakefield - 241 St"
    },
    {
      "borough": "Bx",
      "daytimeRoutes": ["2", "5"],
      "id": "417",
      "latitude": "40.898379",
      "longitude": "-73.854376",
      "name": "Nereid Av"
    },
    {
      "borough": "Bx",
      "daytimeRoutes": ["2", "5"],
      "id": "418",
      "latitude": "40.893193",
      "longitude": "-73.857473",
      "name": "233 St"
    },
    {
      "borough": "Bx",
      "daytimeRoutes": ["2", "5"],
      "id": "419",
      "latitude": "40.888022",
      "longitude": "-73.860341",
      "name": "225 St"
    },
    {
      "borough": "Bx",
      "daytimeRoutes": ["2", "5"],
      "id": "420",
      "latitude": "40.883895",
      "longitude": "-73.862633",
      "name": "219 St"
    },
    {
      "borough": "Bx",
      "daytimeRoutes": ["2", "5"],
      "id": "421",
      "latitude": "40.87785",
      "longitude": "-73.866256",
      "name": "Gun Hill Rd"
    },
    {
      "borough": "Bx",
      "daytimeRoutes": ["2", "5"],
      "id": "422",
      "latitude": "40.871356",
      "longitude": "-73.867164",
      "name": "Burke Av"
    },
    {
      "borough": "Bx",
      "daytimeRoutes": ["2", "5"],
      "id": "423",
      "latitude": "40.865462",
      "longitude": "-73.867352",
      "name": "Allerton Av"
    },
    {
      "borough": "Bx",
      "daytimeRoutes": ["2", "5"],
      "id": "424",
      "latitude": "40.857192",
      "longitude": "-73.867615",
      "name": "Pelham Pkwy"
    },
    {
      "borough": "Bx",
      "daytimeRoutes": ["2", "5"],
      "id": "425",
      "latitude": "40.848828",
      "longitude": "-73.868457",
      "name": "Bronx Park East"
    },
    {
      "borough": "Bx",
      "daytimeRoutes": ["2", "5"],
      "id": "426",
      "latitude": "40.841894",
      "longitude": "-73.873488",
      "name": "E 180 St"
    },
    {
      "borough": "Bx",
      "daytimeRoutes": ["2", "5"],
      "id": "427",
      "latitude": "40.840295",
      "longitude": "-73.880049",
      "name": "West Farms Sq - E Tremont Av"
    },
    {
      "borough": "Bx",
      "daytimeRoutes": ["2", "5"],
      "id": "428",
      "latitude": "40.837288",
      "longitude": "-73.887734",
      "name": "174 St"
    },
    {
      "borough": "Bx",
      "daytimeRoutes": ["2", "5"],
      "id": "429",
      "latitude": "40.829993",
      "longitude": "-73.891865",
      "name": "Freeman St"
    },
    {
      "borough": "Bx",
      "daytimeRoutes": ["2", "5"],
      "id": "430",
      "latitude": "40.824073",
      "longitude": "-73.893064",
      "name": "Simpson St"
    },
    {
      "borough": "Bx",
      "daytimeRoutes": ["2", "5"],
      "id": "431",
      "latitude": "40.822181",
      "longitude": "-73.896736",
      "name": "Intervale Av"
    },
    {
      "borough": "Bx",
      "daytimeRoutes": ["2", "5"],
      "id": "432",
      "latitude": "40.819585",
      "longitude": "-73.90177",
      "name": "Prospect Av"
    },
    {
      "borough": "Bx",
      "daytimeRoutes": ["2", "5"],
      "id": "433",
      "latitude": "40.81649",
      "longitude": "-73.907807",
      "name": "Jackson Av"
    },
    {
      "borough": "Bx",
      "daytimeRoutes": ["2", "5"],
      "id": "434",
      "latitude": "40.816109",
      "longitude": "-73.917757",
      "name": "3 Av - 149 St"
    },
    {
      "borough": "M",
      "daytimeRoutes": ["3"],
      "id": "436",
      "latitude": "40.82388",
      "longitude": "-73.93647",
      "name": "Harlem - 148 St"
    },
    {
      "borough": "M",
      "daytimeRoutes": ["3"],
      "id": "437",
      "latitude": "40.820421",
      "longitude": "-73.936245",
      "name": "145 St"
    },
    {
      "borough": "M",
      "daytimeRoutes": ["2", "3"],
      "id": "438",
      "latitude": "40.814229",
      "longitude": "-73.94077",
      "name": "135 St"
    },
    {
      "borough": "M",
      "daytimeRoutes": ["2", "3"],
      "id": "439",
      "latitude": "40.807754",
      "longitude": "-73.945495",
      "name": "125 St"
    },
    {
      "borough": "M",
      "daytimeRoutes": ["2", "3"],
      "id": "440",
      "latitude": "40.802098",
      "longitude": "-73.949625",
      "name": "116 St"
    },
    {
      "borough": "M",
      "daytimeRoutes": ["2", "3"],
      "id": "441",
      "latitude": "40.799075",
      "longitude": "-73.951822",
      "name": "Central Park North (110 St)"
    },
    {
      "borough": "Bx",
      "daytimeRoutes": ["5"],
      "id": "442",
      "latitude": "40.8883",
      "longitude": "-73.830834",
      "name": "Eastchester - Dyre Av"
    },
    {
      "borough": "Bx",
      "daytimeRoutes": ["5"],
      "id": "443",
      "latitude": "40.878663",
      "longitude": "-73.838591",
      "name": "Baychester Av"
    },
    {
      "borough": "Bx",
      "daytimeRoutes": ["5"],
      "id": "444",
      "latitude": "40.869526",
      "longitude": "-73.846384",
      "name": "Gun Hill Rd"
    },
    {
      "borough": "Bx",
      "daytimeRoutes": ["5"],
      "id": "445",
      "latitude": "40.858985",
      "longitude": "-73.855359",
      "name": "Pelham Pkwy"
    },
    {
      "borough": "Bx",
      "daytimeRoutes": ["5"],
      "id": "446",
      "latitude": "40.854364",
      "longitude": "-73.860495",
      "name": "Morris Park"
    },
    {
      "borough": "Q",
      "daytimeRoutes": ["7"],
      "id": "447",
      "latitude": "40.7596",
      "longitude": "-73.83003",
      "name": "Flushing - Main St"
    },
    {
      "borough": "Q",
      "daytimeRoutes": ["7"],
      "id": "448",
      "latitude": "40.754622",
      "longitude": "-73.845625",
      "name": "Mets - Willets Point"
    },
    {
      "borough": "Q",
      "daytimeRoutes": ["7"],
      "id": "449",
      "latitude": "40.75173",
      "longitude": "-73.855334",
      "name": "111 St"
    },
    {
      "borough": "Q",
      "daytimeRoutes": ["7"],
      "id": "450",
      "latitude": "40.749865",
      "longitude": "-73.8627",
      "name": "103 St - Corona Plaza"
    },
    {
      "borough": "Q",
      "daytimeRoutes": ["7"],
      "id": "451",
      "latitude": "40.749145",
      "longitude": "-73.869527",
      "name": "Junction Blvd"
    },
    {
      "borough": "Q",
      "daytimeRoutes": ["7"],
      "id": "452",
      "latitude": "40.748408",
      "longitude": "-73.876613",
      "name": "90 St - Elmhurst Av"
    },
    {
      "borough": "Q",
      "daytimeRoutes": ["7"],
      "id": "453",
      "latitude": "40.747659",
      "longitude": "-73.883697",
      "name": "82 St - Jackson Hts"
    },
    {
      "borough": "Q",
      "daytimeRoutes": ["7"],
      "id": "455",
      "latitude": "40.746325",
      "longitude": "-73.896403",
      "name": "69 St"
    },
    {
      "borough": "Q",
      "daytimeRoutes": ["7"],
      "id": "456",
      "latitude": "40.74563",
      "longitude": "-73.902984",
      "name": "Woodside - 61 St"
    },
    {
      "borough": "Q",
      "daytimeRoutes": ["7"],
      "id": "457",
      "latitude": "40.744149",
      "longitude": "-73.912549",
      "name": "52 St"
    },
    {
      "borough": "Q",
      "daytimeRoutes": ["7"],
      "id": "458",
      "latitude": "40.743132",
      "longitude": "-73.918435",
      "name": "46 St"
    },
    {
      "borough": "Q",
      "daytimeRoutes": ["7"],
      "id": "459",
      "latitude": "40.743781",
      "longitude": "-73.924016",
      "name": "40 St"
    },
    {
      "borough": "Q",
      "daytimeRoutes": ["7"],
      "id": "460",
      "latitude": "40.744587",
      "longitude": "-73.930997",
      "name": "33 St"
    },
    {
      "borough": "Q",
      "daytimeRoutes": ["7", "N", "W"],
      "id": "461",
      "latitude": "40.750582",
      "longitude": "-73.940202",
      "name": "Queensboro Plaza"
    },
    {
      "borough": "Q",
      "daytimeRoutes": ["7"],
      "id": "463",
      "latitude": "40.742216",
      "longitude": "-73.948916",
      "name": "Hunters Point Av"
    },
    {
      "borough": "Q",
      "daytimeRoutes": ["7"],
      "id": "464",
      "latitude": "40.742626",
      "longitude": "-73.953581",
      "name": "Vernon Blvd - Jackson Av"
    },
    {
      "borough": "M",
      "daytimeRoutes": ["7"],
      "id": "471",
      "latitude": "40.755882",
      "longitude": "-74.00191",
      "name": "34 St - 11 Av"
    },
    {
      "borough": "M",
      "daytimeRoutes": ["Q"],
      "id": "475",
      "latitude": "40.784318",
      "longitude": "-73.947152",
      "name": "96 St"
    },
    {
      "borough": "M",
      "daytimeRoutes": ["Q"],
      "id": "476",
      "latitude": "40.777891",
      "longitude": "-73.951787",
      "name": "86 St"
    },
    {
      "borough": "M",
      "daytimeRoutes": ["Q"],
      "id": "477",
      "latitude": "40.768799",
      "longitude": "-73.958424",
      "name": "72 St"
    },
    {
      "borough": "SI",
      "daytimeRoutes": ["SIR"],
      "id": "501",
      "latitude": "40.643748",
      "longitude": "-74.073643",
      "name": "St George"
    },
    {
      "borough": "SI",
      "daytimeRoutes": ["SIR"],
      "id": "502",
      "latitude": "40.636949",
      "longitude": "-74.074835",
      "name": "Tompkinsville"
    },
    {
      "borough": "SI",
      "daytimeRoutes": ["SIR"],
      "id": "503",
      "latitude": "40.627915",
      "longitude": "-74.075162",
      "name": "Stapleton"
    },
    {
      "borough": "SI",
      "daytimeRoutes": ["SIR"],
      "id": "504",
      "latitude": "40.621319",
      "longitude": "-74.071402",
      "name": "Clifton"
    },
    {
      "borough": "SI",
      "daytimeRoutes": ["SIR"],
      "id": "505",
      "latitude": "40.603117",
      "longitude": "-74.084087",
      "name": "Grasmere"
    },
    {
      "borough": "SI",
      "daytimeRoutes": ["SIR"],
      "id": "506",
      "latitude": "40.596612",
      "longitude": "-74.087368",
      "name": "Old Town"
    },
    {
      "borough": "SI",
      "daytimeRoutes": ["SIR"],
      "id": "507",
      "latitude": "40.588849",
      "longitude": "-74.09609",
      "name": "Dongan Hills"
    },
    {
      "borough": "SI",
      "daytimeRoutes": ["SIR"],
      "id": "508",
      "latitude": "40.583591",
      "longitude": "-74.103338",
      "name": "Jefferson Av"
    },
    {
      "borough": "SI",
      "daytimeRoutes": ["SIR"],
      "id": "509",
      "latitude": "40.578965",
      "longitude": "-74.109704",
      "name": "Grant City"
    },
    {
      "borough": "SI",
      "daytimeRoutes": ["SIR"],
      "id": "510",
      "latitude": "40.57348",
      "longitude": "-74.11721",
      "name": "New Dorp"
    },
    {
      "borough": "SI",
      "daytimeRoutes": ["SIR"],
      "id": "511",
      "latitude": "40.56511",
      "longitude": "-74.12632",
      "name": "Oakwood Heights"
    },
    {
      "borough": "SI",
      "daytimeRoutes": ["SIR"],
      "id": "512",
      "latitude": "40.5564",
      "longitude": "-74.136907",
      "name": "Bay Terrace"
    },
    {
      "borough": "SI",
      "daytimeRoutes": ["SIR"],
      "id": "513",
      "latitude": "40.551231",
      "longitude": "-74.151399",
      "name": "Great Kills"
    },
    {
      "borough": "SI",
      "daytimeRoutes": ["SIR"],
      "id": "514",
      "latitude": "40.544601",
      "longitude": "-74.16457",
      "name": "Eltingville"
    },
    {
      "borough": "SI",
      "daytimeRoutes": ["SIR"],
      "id": "515",
      "latitude": "40.54046",
      "longitude": "-74.178217",
      "name": "Annadale"
    },
    {
      "borough": "SI",
      "daytimeRoutes": ["SIR"],
      "id": "516",
      "latitude": "40.533674",
      "longitude": "-74.191794",
      "name": "Huguenot"
    },
    {
      "borough": "SI",
      "daytimeRoutes": ["SIR"],
      "id": "517",
      "latitude": "40.525507",
      "longitude": "-74.200064",
      "name": "Prince's Bay"
    },
    {
      "borough": "SI",
      "daytimeRoutes": ["SIR"],
      "id": "518",
      "latitude": "40.52241",
      "longitude": "-74.217847",
      "name": "Pleasant Plains"
    },
    {
      "borough": "SI",
      "daytimeRoutes": ["SIR"],
      "id": "519",
      "latitude": "40.519631",
      "longitude": "-74.229141",
      "name": "Richmond Valley"
    },
    {
      "borough": "SI",
      "daytimeRoutes": ["SIR"],
      "id": "522",
      "latitude": "40.512764",
      "longitude": "-74.251961",
      "name": "Tottenville"
    },
    {
      "borough": "SI",
      "daytimeRoutes": ["SIR"],
      "id": "523",
      "latitude": "40.516578",
      "longitude": "-74.242096",
      "name": "Arthur Kill"
    },
    {
      "borough": "M",
      "daytimeRoutes": ["L", "F", "M", "1", "2", "3"],
      "id": "601",
      "latitude": "40.737826",
      "longitude": "-74.000201",
      "name": "14 St / 6 Av"
    },
    {
      "borough": "M",
      "daytimeRoutes": ["N", "Q", "R", "W", "L", "4", "5", "6"],
      "id": "602",
      "latitude": "40.734673",
      "longitude": "-73.989951",
      "name": "14 St - Union Sq"
    },
    {
      "borough": "Bx",
      "daytimeRoutes": ["4", "2", "5"],
      "id": "603",
      "latitude": "40.81841",
      "longitude": "-73.926718",
      "name": "149 St - Grand Concourse"
    },
    {
      "borough": "Bx",
      "daytimeRoutes": ["B", "D", "4"],
      "id": "604",
      "latitude": "40.827994",
      "longitude": "-73.925831",
      "name": "161 St - Yankee Stadium"
    },
    {
      "borough": "M",
      "daytimeRoutes": ["A", "C", "1"],
      "id": "605",
      "latitude": "40.840556",
      "longitude": "-73.940133",
      "name": "168 St - Washington Hts"
    },
    {
      "borough": "Q",
      "daytimeRoutes": ["E", "M", "G", "7"],
      "id": "606",
      "latitude": "40.747023",
      "longitude": "-73.945264",
      "name": "Court Sq - 23 St"
    },
    {
      "borough": "M",
      "daytimeRoutes": ["N", "Q", "R", "W", "B", "D", "F", "M"],
      "id": "607",
      "latitude": "40.749719",
      "longitude": "-73.987823",
      "name": "34 St - Herald Sq"
    },
    {
      "borough": "Bk",
      "daytimeRoutes": ["R", "F", "G"],
      "id": "608",
      "latitude": "40.670272",
      "longitude": "-73.989779",
      "name": "4 Av - 9 St"
    },
    {
      "borough": "M",
      "daytimeRoutes": ["B", "D", "F", "M", "7"],
      "id": "609",
      "latitude": "40.753821",
      "longitude": "-73.981963",
      "name": "42 St - Bryant Pk / 5 Av"
    },
    {
      "borough": "M",
      "daytimeRoutes": ["4", "5", "6", "7", "S"],
      "id": "610",
      "latitude": "40.752769",
      "longitude": "-73.979189",
      "name": "Grand Central - 42 St"
    },
    {
      "borough": "M",
      "daytimeRoutes": [
        "N",
        "Q",
        "R",
        "W",
        "A",
        "C",
        "E",
        "1",
        "2",
        "3",
        "7",
        "S"
      ],
      "id": "611",
      "latitude": "40.755983",
      "longitude": "-73.986229",
      "name": "Times Sq - 42 St / Port Authority Bus Terminal"
    },
    {
      "borough": "M",
      "daytimeRoutes": ["E", "M", "6"],
      "id": "612",
      "latitude": "40.757107",
      "longitude": "-73.97192",
      "name": "Lexington Av / 51 St"
    },
    {
      "borough": "M",
      "daytimeRoutes": ["N", "W", "R", "4", "5", "6"],
      "id": "613",
      "latitude": "40.762526",
      "longitude": "-73.967967",
      "name": "Lexington Av / 59 St"
    },
    {
      "borough": "M",
      "daytimeRoutes": ["A", "B", "C", "D", "1"],
      "id": "614",
      "latitude": "40.768247",
      "longitude": "-73.981929",
      "name": "59 St - Columbus Circle"
    },
    {
      "borough": "Bk",
      "daytimeRoutes": ["D", "N"],
      "id": "615",
      "latitude": "40.624842",
      "longitude": "-73.996353",
      "name": "62 St / New Utrecht Av"
    },
    {
      "borough": "Q",
      "daytimeRoutes": ["E", "F", "M", "R", "7"],
      "id": "616",
      "latitude": "40.746848",
      "longitude": "-73.891394",
      "name": "Jackson Hts-Roosevelt Av / 74 St"
    },
    {
      "borough": "Bk",
      "daytimeRoutes": ["D", "N", "R", "B", "Q", "2", "3", "4", "5"],
      "id": "617",
      "latitude": "40.684359",
      "longitude": "-73.977666",
      "name": "Atlantic Av-Barclays Ctr"
    },
    {
      "borough": "M",
      "daytimeRoutes": ["L", "A", "C", "E"],
      "id": "618",
      "latitude": "40.740893",
      "longitude": "-74.00169",
      "name": "14 St / 8 Av"
    },
    {
      "borough": "M",
      "daytimeRoutes": ["B", "D", "F", "M", "6"],
      "id": "619",
      "latitude": "40.725915",
      "longitude": "-73.994659",
      "name": "Broadway-Lafayette St / Bleecker St"
    },
    {
      "borough": "Bk",
      "daytimeRoutes": ["R", "2", "3", "4", "5"],
      "id": "620",
      "latitude": "40.692404",
      "longitude": "-73.990151",
      "name": "Borough Hall / Court St"
    },
    {
      "borough": "Bk",
      "daytimeRoutes": ["J", "Z", "L", "A", "C"],
      "id": "621",
      "latitude": "40.678334",
      "longitude": "-73.905316",
      "name": "Broadway Junction"
    },
    {
      "borough": "M",
      "daytimeRoutes": ["J", "Z", "4", "5", "6"],
      "id": "622",
      "latitude": "40.713065",
      "longitude": "-74.004131",
      "name": "Brooklyn Bridge-City Hall / Chambers St"
    },
    {
      "borough": "M",
      "daytimeRoutes": ["R", "W", "N", "Q", "J", "Z", "6"],
      "id": "623",
      "latitude": "40.718803",
      "longitude": "-74.000193",
      "name": "Canal St"
    },
    {
      "borough": "M",
      "daytimeRoutes": ["R", "W", "A", "C", "E", "2", "3"],
      "id": "624",
      "latitude": "40.713051",
      "longitude": "-74.008811",
      "name": "Chambers St / WTC / Park Place / Cortlandt St"
    },
    {
      "borough": "M",
      "daytimeRoutes": ["J", "M", "Z", "F"],
      "id": "625",
      "latitude": "40.718611",
      "longitude": "-73.988114",
      "name": "Delancey St / Essex St"
    },
    {
      "borough": "Bk",
      "daytimeRoutes": ["S", "2", "3", "4", "5"],
      "id": "626",
      "latitude": "40.670682",
      "longitude": "-73.958131",
      "name": "Franklin Av / Botanic Garden"
    },
    {
      "borough": "Bk",
      "daytimeRoutes": ["S", "C"],
      "id": "627",
      "latitude": "40.68138",
      "longitude": "-73.956848",
      "name": "Franklin Av"
    },
    {
      "borough": "M",
      "daytimeRoutes": ["J", "Z", "A", "C", "2", "3", "4", "5"],
      "id": "628",
      "latitude": "40.710368",
      "longitude": "-74.009509",
      "name": "Fulton St"
    },
    {
      "borough": "Bk",
      "daytimeRoutes": ["L", "G"],
      "id": "629",
      "latitude": "40.712792",
      "longitude": "-73.951418",
      "name": "Metropolitan Av / Lorimer St"
    },
    {
      "borough": "Bk",
      "daytimeRoutes": ["M", "L"],
      "id": "630",
      "latitude": "40.699814",
      "longitude": "-73.911586",
      "name": "Myrtle - Wyckoff Avs"
    },
    {
      "borough": "M",
      "daytimeRoutes": ["R", "W", "1"],
      "id": "635",
      "latitude": "40.702068",
      "longitude": "-74.013664",
      "name": "South Ferry / Whitehall"
    },
    {
      "borough": "Bk",
      "daytimeRoutes": ["R", "A", "C", "F"],
      "id": "636",
      "latitude": "40.692338",
      "longitude": "-73.987342",
      "name": "Jay St - MetroTech"
    }
  ]
}
